[
    {
        "code": "AAA",
        "lat": "-17.3595",
        "lon": "-145.494",
        "name": "Sofia Airport",
        "city": "Sofia",
        "state": "Tuamotu-Gambier",
        "country": "French Polynesia",
        "woeid": "12512819",
        "tz": "Pacific\/Midway",
        "type": "Airports",
        "runway_length": "4921",
        "elev": "7",
        "icao": "NTGA",
        "direct_flights": "2",
        "carriers": "1"
      },
      {
        "code": "AAA",
        "lat": "-12.3595",
        "lon": "-345.494",
        "name": "Damascus Airport",
        "city": "Damascus",
        "state": "Tuamotu-Gambier",
        "country": "French Polynesia",
        "woeid": "12512819",
        "tz": "Pacific\/Midway",
        "type": "Airports",
        "runway_length": "4921",
        "elev": "7",
        "icao": "NTGA",
        "direct_flights": "2",
        "carriers": "1"
      },{
        "code": "CCC",
        "lat": "-17.3595",
        "lon": "-145.494",
        "name": "Anaa Airport",
        "city": "Anaa",
        "state": "Tuamotu-Gambier",
        "country": "French Polynesia",
        "woeid": "12512819",
        "tz": "Pacific\/Midway",
        "type": "Airports",
        "runway_length": "4921",
        "elev": "7",
        "icao": "NTGA",
        "direct_flights": "2",
        "carriers": "1"
      },{
        "code": "FFF",
        "lat": "-11.3595",
        "lon": "-144.494",
        "name": "Anaa Airport",
        "city": "Riga",
        "state": "Tuamotu-Gambier",
        "country": "French Polynesia",
        "woeid": "12512819",
        "tz": "Pacific\/Midway",
        "type": "Airports",
        "runway_length": "4921",
        "elev": "7",
        "icao": "NTGA",
        "direct_flights": "2",
        "carriers": "1"
      },{
        "code": "TTT",
        "lat": "-17.3595",
        "lon": "-145.494",
        "name": "Kiev Airport",
        "city": "Kiev",
        "state": "Tuamotu-Gambier",
        "country": "French Polynesia",
        "woeid": "12512819",
        "tz": "Pacific\/Midway",
        "type": "Airports",
        "runway_length": "4921",
        "elev": "7",
        "icao": "NTGA",
        "direct_flights": "2",
        "carriers": "1"
      },{
        "code": "AAA",
        "lat": "-17.3595",
        "lon": "-145.494",
        "name": "Anaa Airport",
        "city": "Anaa",
        "state": "Tuamotu-Gambier",
        "country": "French Polynesia",
        "woeid": "12512819",
        "tz": "Pacific\/Midway",
        "type": "Airports",
        "runway_length": "4921",
        "elev": "7",
        "icao": "NTGA",
        "direct_flights": "2",
        "carriers": "1"
      },{
        "code": "TTT",
        "lat": "-17.3595",
        "lon": "-145.494",
        "name": "Anaa Airport",
        "city": "Anaa",
        "state": "Tuamotu-Gambier",
        "country": "French Polynesia",
        "woeid": "12512819",
        "tz": "Pacific\/Midway",
        "type": "Airports",
        "runway_length": "4921",
        "elev": "7",
        "icao": "NTGA",
        "direct_flights": "2",
        "carriers": "1"
      },{
        "code": "YYY",
        "lat": "-17.3595",
        "lon": "-145.494",
        "name": "Anaa Airport",
        "city": "Anaa",
        "state": "Tuamotu-Gambier",
        "country": "French Polynesia",
        "woeid": "12512819",
        "tz": "Pacific\/Midway",
        "type": "Airports",
        "runway_length": "4921",
        "elev": "7",
        "icao": "NTGA",
        "direct_flights": "2",
        "carriers": "1"
      },{
        "code": "WWW",
        "lat": "-17.3595",
        "lon": "-145.494",
        "name": "Anaa Airport",
        "city": "Anaa",
        "state": "Tuamotu-Gambier",
        "country": "French Polynesia",
        "woeid": "12512819",
        "tz": "Pacific\/Midway",
        "type": "Airports",
        "runway_length": "4921",
        "elev": "7",
        "icao": "NTGA",
        "direct_flights": "2",
        "carriers": "1"
      },{
        "code": "GGG",
        "lat": "-17.3595",
        "lon": "-145.494",
        "name": "Anaa Airport",
        "city": "Anaa",
        "state": "Tuamotu-Gambier",
        "country": "French Polynesia",
        "woeid": "12512819",
        "tz": "Pacific\/Midway",
        "type": "Airports",
        "runway_length": "4921",
        "elev": "7",
        "icao": "NTGA",
        "direct_flights": "2",
        "carriers": "1"
      },{
        "code": "UUU",
        "lat": "-17.3595",
        "lon": "-145.494",
        "name": "Anaa Airport",
        "city": "Anaa",
        "state": "Tuamotu-Gambier",
        "country": "French Polynesia",
        "woeid": "12512819",
        "tz": "Pacific\/Midway",
        "type": "Airports",
        "runway_length": "4921",
        "elev": "7",
        "icao": "NTGA",
        "direct_flights": "2",
        "carriers": "1"
      },{
        "code": "OOO",
        "lat": "-17.3595",
        "lon": "-145.494",
        "name": "Anaa Airport",
        "city": "Anaa",
        "state": "Tuamotu-Gambier",
        "country": "French Polynesia",
        "woeid": "12512819",
        "tz": "Pacific\/Midway",
        "type": "Airports",
        "runway_length": "4921",
        "elev": "7",
        "icao": "NTGA",
        "direct_flights": "2",
        "carriers": "1"
      },{
        "code": "AAA",
        "lat": "-17.3595",
        "lon": "-145.494",
        "name": "Anaa Airport",
        "city": "Anaa",
        "state": "Tuamotu-Gambier",
        "country": "French Polynesia",
        "woeid": "12512819",
        "tz": "Pacific\/Midway",
        "type": "Airports",
        "runway_length": "4921",
        "elev": "7",
        "icao": "NTGA",
        "direct_flights": "2",
        "carriers": "1"
      },{
        "code": "AAA",
        "lat": "-17.3595",
        "lon": "-145.494",
        "name": "Anaa Airport",
        "city": "Anaa",
        "state": "Tuamotu-Gambier",
        "country": "French Polynesia",
        "woeid": "12512819",
        "tz": "Pacific\/Midway",
        "type": "Airports",
        "runway_length": "4921",
        "elev": "7",
        "icao": "NTGA",
        "direct_flights": "2",
        "carriers": "1"
      },{
        "code": "AAA",
        "lat": "-17.3595",
        "lon": "-145.494",
        "name": "Anaa Airport",
        "city": "Anaa",
        "state": "Tuamotu-Gambier",
        "country": "French Polynesia",
        "woeid": "12512819",
        "tz": "Pacific\/Midway",
        "type": "Airports",
        "runway_length": "4921",
        "elev": "7",
        "icao": "NTGA",
        "direct_flights": "2",
        "carriers": "1"
      },{
        "code": "AAA",
        "lat": "-17.3595",
        "lon": "-145.494",
        "name": "Anaa Airport",
        "city": "Anaa",
        "state": "Tuamotu-Gambier",
        "country": "French Polynesia",
        "woeid": "12512819",
        "tz": "Pacific\/Midway",
        "type": "Airports",
        "runway_length": "4921",
        "elev": "7",
        "icao": "NTGA",
        "direct_flights": "2",
        "carriers": "1"
      },{
        "code": "AAA",
        "lat": "-17.3595",
        "lon": "-145.494",
        "name": "Anaa Airport",
        "city": "Anaa",
        "state": "Tuamotu-Gambier",
        "country": "French Polynesia",
        "woeid": "12512819",
        "tz": "Pacific\/Midway",
        "type": "Airports",
        "runway_length": "4921",
        "elev": "7",
        "icao": "NTGA",
        "direct_flights": "2",
        "carriers": "1"
      },{
        "code": "AAA",
        "lat": "-17.3595",
        "lon": "-145.494",
        "name": "Anaa Airport",
        "city": "Anaa",
        "state": "Tuamotu-Gambier",
        "country": "French Polynesia",
        "woeid": "12512819",
        "tz": "Pacific\/Midway",
        "type": "Airports",
        "runway_length": "4921",
        "elev": "7",
        "icao": "NTGA",
        "direct_flights": "2",
        "carriers": "1"
      },{
        "code": "AAA",
        "lat": "-17.3595",
        "lon": "-145.494",
        "name": "Anaa Airport",
        "city": "Anaa",
        "state": "Tuamotu-Gambier",
        "country": "French Polynesia",
        "woeid": "12512819",
        "tz": "Pacific\/Midway",
        "type": "Airports",
        "runway_length": "4921",
        "elev": "7",
        "icao": "NTGA",
        "direct_flights": "2",
        "carriers": "1"
      },{
        "code": "AAA",
        "lat": "-17.3595",
        "lon": "-145.494",
        "name": "Anaa Airport",
        "city": "Anaa",
        "state": "Tuamotu-Gambier",
        "country": "French Polynesia",
        "woeid": "12512819",
        "tz": "Pacific\/Midway",
        "type": "Airports",
        "runway_length": "4921",
        "elev": "7",
        "icao": "NTGA",
        "direct_flights": "2",
        "carriers": "1"
      },{
        "code": "AAA",
        "lat": "-17.3595",
        "lon": "-145.494",
        "name": "Anaa Airport",
        "city": "Anaa",
        "state": "Tuamotu-Gambier",
        "country": "French Polynesia",
        "woeid": "12512819",
        "tz": "Pacific\/Midway",
        "type": "Airports",
        "runway_length": "4921",
        "elev": "7",
        "icao": "NTGA",
        "direct_flights": "2",
        "carriers": "1"
      },{
        "code": "AAA",
        "lat": "-17.3595",
        "lon": "-145.494",
        "name": "Anaa Airport",
        "city": "Anaa",
        "state": "Tuamotu-Gambier",
        "country": "French Polynesia",
        "woeid": "12512819",
        "tz": "Pacific\/Midway",
        "type": "Airports",
        "runway_length": "4921",
        "elev": "7",
        "icao": "NTGA",
        "direct_flights": "2",
        "carriers": "1"
      },{
        "code": "AAA",
        "lat": "-17.3595",
        "lon": "-145.494",
        "name": "Anaa Airport",
        "city": "Anaa",
        "state": "Tuamotu-Gambier",
        "country": "French Polynesia",
        "woeid": "12512819",
        "tz": "Pacific\/Midway",
        "type": "Airports",
        "runway_length": "4921",
        "elev": "7",
        "icao": "NTGA",
        "direct_flights": "2",
        "carriers": "1"
      },{
        "code": "AAA",
        "lat": "-17.3595",
        "lon": "-145.494",
        "name": "Anaa Airport",
        "city": "Anaa",
        "state": "Tuamotu-Gambier",
        "country": "French Polynesia",
        "woeid": "12512819",
        "tz": "Pacific\/Midway",
        "type": "Airports",
        "runway_length": "4921",
        "elev": "7",
        "icao": "NTGA",
        "direct_flights": "2",
        "carriers": "1"
      },{
        "code": "AAA",
        "lat": "-17.3595",
        "lon": "-145.494",
        "name": "Anaa Airport",
        "city": "Anaa",
        "state": "Tuamotu-Gambier",
        "country": "French Polynesia",
        "woeid": "12512819",
        "tz": "Pacific\/Midway",
        "type": "Airports",
        "runway_length": "4921",
        "elev": "7",
        "icao": "NTGA",
        "direct_flights": "2",
        "carriers": "1"
      },{
        "code": "AAA",
        "lat": "-17.3595",
        "lon": "-145.494",
        "name": "Anaa Airport",
        "city": "Anaa",
        "state": "Tuamotu-Gambier",
        "country": "French Polynesia",
        "woeid": "12512819",
        "tz": "Pacific\/Midway",
        "type": "Airports",
        "runway_length": "4921",
        "elev": "7",
        "icao": "NTGA",
        "direct_flights": "2",
        "carriers": "1"
      },{
        "code": "AAA",
        "lat": "-17.3595",
        "lon": "-145.494",
        "name": "Anaa Airport",
        "city": "Anaa",
        "state": "Tuamotu-Gambier",
        "country": "French Polynesia",
        "woeid": "12512819",
        "tz": "Pacific\/Midway",
        "type": "Airports",
        "runway_length": "4921",
        "elev": "7",
        "icao": "NTGA",
        "direct_flights": "2",
        "carriers": "1"
      },{
        "code": "AAA",
        "lat": "-17.3595",
        "lon": "-145.494",
        "name": "Anaa Airport",
        "city": "Anaa",
        "state": "Tuamotu-Gambier",
        "country": "French Polynesia",
        "woeid": "12512819",
        "tz": "Pacific\/Midway",
        "type": "Airports",
        "runway_length": "4921",
        "elev": "7",
        "icao": "NTGA",
        "direct_flights": "2",
        "carriers": "1"
      },{
        "code": "AAA",
        "lat": "-17.3595",
        "lon": "-145.494",
        "name": "Anaa Airport",
        "city": "Anaa",
        "state": "Tuamotu-Gambier",
        "country": "French Polynesia",
        "woeid": "12512819",
        "tz": "Pacific\/Midway",
        "type": "Airports",
        "runway_length": "4921",
        "elev": "7",
        "icao": "NTGA",
        "direct_flights": "2",
        "carriers": "1"
      },{
        "code": "AAA",
        "lat": "-17.3595",
        "lon": "-145.494",
        "name": "Anaa Airport",
        "city": "Anaa",
        "state": "Tuamotu-Gambier",
        "country": "French Polynesia",
        "woeid": "12512819",
        "tz": "Pacific\/Midway",
        "type": "Airports",
        "runway_length": "4921",
        "elev": "7",
        "icao": "NTGA",
        "direct_flights": "2",
        "carriers": "1"
      },{
        "code": "AAA",
        "lat": "-17.3595",
        "lon": "-145.494",
        "name": "Anaa Airport",
        "city": "Anaa",
        "state": "Tuamotu-Gambier",
        "country": "French Polynesia",
        "woeid": "12512819",
        "tz": "Pacific\/Midway",
        "type": "Airports",
        "runway_length": "4921",
        "elev": "7",
        "icao": "NTGA",
        "direct_flights": "2",
        "carriers": "1"
      },{
        "code": "AAA",
        "lat": "-17.3595",
        "lon": "-145.494",
        "name": "Anaa Airport",
        "city": "Anaa",
        "state": "Tuamotu-Gambier",
        "country": "French Polynesia",
        "woeid": "12512819",
        "tz": "Pacific\/Midway",
        "type": "Airports",
        "runway_length": "4921",
        "elev": "7",
        "icao": "NTGA",
        "direct_flights": "2",
        "carriers": "1"
      },{
        "code": "AAA",
        "lat": "-17.3595",
        "lon": "-145.494",
        "name": "Anaa Airport",
        "city": "Anaa",
        "state": "Tuamotu-Gambier",
        "country": "French Polynesia",
        "woeid": "12512819",
        "tz": "Pacific\/Midway",
        "type": "Airports",
        "runway_length": "4921",
        "elev": "7",
        "icao": "NTGA",
        "direct_flights": "2",
        "carriers": "1"
      },{
        "code": "AAA",
        "lat": "-17.3595",
        "lon": "-145.494",
        "name": "Anaa Airport",
        "city": "Anaa",
        "state": "Tuamotu-Gambier",
        "country": "French Polynesia",
        "woeid": "12512819",
        "tz": "Pacific\/Midway",
        "type": "Airports",
        "runway_length": "4921",
        "elev": "7",
        "icao": "NTGA",
        "direct_flights": "2",
        "carriers": "1"
      },{
        "code": "AAA",
        "lat": "-17.3595",
        "lon": "-145.494",
        "name": "Anaa Airport",
        "city": "Anaa",
        "state": "Tuamotu-Gambier",
        "country": "French Polynesia",
        "woeid": "12512819",
        "tz": "Pacific\/Midway",
        "type": "Airports",
        "runway_length": "4921",
        "elev": "7",
        "icao": "NTGA",
        "direct_flights": "2",
        "carriers": "1"
      },{
        "code": "AAA",
        "lat": "-17.3595",
        "lon": "-145.494",
        "name": "Anaa Airport",
        "city": "Anaa",
        "state": "Tuamotu-Gambier",
        "country": "French Polynesia",
        "woeid": "12512819",
        "tz": "Pacific\/Midway",
        "type": "Airports",
        "runway_length": "4921",
        "elev": "7",
        "icao": "NTGA",
        "direct_flights": "2",
        "carriers": "1"
      },{
        "code": "AAA",
        "lat": "-17.3595",
        "lon": "-145.494",
        "name": "Anaa Airport",
        "city": "Anaa",
        "state": "Tuamotu-Gambier",
        "country": "French Polynesia",
        "woeid": "12512819",
        "tz": "Pacific\/Midway",
        "type": "Airports",
        "runway_length": "4921",
        "elev": "7",
        "icao": "NTGA",
        "direct_flights": "2",
        "carriers": "1"
      },{
        "code": "AAA",
        "lat": "-17.3595",
        "lon": "-145.494",
        "name": "Anaa Airport",
        "city": "Anaa",
        "state": "Tuamotu-Gambier",
        "country": "French Polynesia",
        "woeid": "12512819",
        "tz": "Pacific\/Midway",
        "type": "Airports",
        "runway_length": "4921",
        "elev": "7",
        "icao": "NTGA",
        "direct_flights": "2",
        "carriers": "1"
      },{
        "code": "AAA",
        "lat": "-17.3595",
        "lon": "-145.494",
        "name": "Anaa Airport",
        "city": "Anaa",
        "state": "Tuamotu-Gambier",
        "country": "French Polynesia",
        "woeid": "12512819",
        "tz": "Pacific\/Midway",
        "type": "Airports",
        "runway_length": "4921",
        "elev": "7",
        "icao": "NTGA",
        "direct_flights": "2",
        "carriers": "1"
      },{
        "code": "AAA",
        "lat": "-17.3595",
        "lon": "-145.494",
        "name": "Anaa Airport",
        "city": "Anaa",
        "state": "Tuamotu-Gambier",
        "country": "French Polynesia",
        "woeid": "12512819",
        "tz": "Pacific\/Midway",
        "type": "Airports",
        "runway_length": "4921",
        "elev": "7",
        "icao": "NTGA",
        "direct_flights": "2",
        "carriers": "1"
      },{
        "code": "AAA",
        "lat": "-17.3595",
        "lon": "-145.494",
        "name": "Anaa Airport",
        "city": "Anaa",
        "state": "Tuamotu-Gambier",
        "country": "French Polynesia",
        "woeid": "12512819",
        "tz": "Pacific\/Midway",
        "type": "Airports",
        "runway_length": "4921",
        "elev": "7",
        "icao": "NTGA",
        "direct_flights": "2",
        "carriers": "1"
      },{
        "code": "AAA",
        "lat": "-17.3595",
        "lon": "-145.494",
        "name": "Anaa Airport",
        "city": "Anaa",
        "state": "Tuamotu-Gambier",
        "country": "French Polynesia",
        "woeid": "12512819",
        "tz": "Pacific\/Midway",
        "type": "Airports",
        "runway_length": "4921",
        "elev": "7",
        "icao": "NTGA",
        "direct_flights": "2",
        "carriers": "1"
      },{
        "code": "AAA",
        "lat": "-17.3595",
        "lon": "-145.494",
        "name": "Anaa Airport",
        "city": "Anaa",
        "state": "Tuamotu-Gambier",
        "country": "French Polynesia",
        "woeid": "12512819",
        "tz": "Pacific\/Midway",
        "type": "Airports",
        "runway_length": "4921",
        "elev": "7",
        "icao": "NTGA",
        "direct_flights": "2",
        "carriers": "1"
      },{
        "code": "AAA",
        "lat": "-17.3595",
        "lon": "-145.494",
        "name": "Anaa Airport",
        "city": "Anaa",
        "state": "Tuamotu-Gambier",
        "country": "French Polynesia",
        "woeid": "12512819",
        "tz": "Pacific\/Midway",
        "type": "Airports",
        "runway_length": "4921",
        "elev": "7",
        "icao": "NTGA",
        "direct_flights": "2",
        "carriers": "1"
      },{
        "code": "AAA",
        "lat": "-17.3595",
        "lon": "-145.494",
        "name": "Anaa Airport",
        "city": "Anaa",
        "state": "Tuamotu-Gambier",
        "country": "French Polynesia",
        "woeid": "12512819",
        "tz": "Pacific\/Midway",
        "type": "Airports",
        "runway_length": "4921",
        "elev": "7",
        "icao": "NTGA",
        "direct_flights": "2",
        "carriers": "1"
      },{
        "code": "AAA",
        "lat": "-17.3595",
        "lon": "-145.494",
        "name": "Anaa Airport",
        "city": "Anaa",
        "state": "Tuamotu-Gambier",
        "country": "French Polynesia",
        "woeid": "12512819",
        "tz": "Pacific\/Midway",
        "type": "Airports",
        "runway_length": "4921",
        "elev": "7",
        "icao": "NTGA",
        "direct_flights": "2",
        "carriers": "1"
      },{
        "code": "AAA",
        "lat": "-17.3595",
        "lon": "-145.494",
        "name": "Anaa Airport",
        "city": "Anaa",
        "state": "Tuamotu-Gambier",
        "country": "French Polynesia",
        "woeid": "12512819",
        "tz": "Pacific\/Midway",
        "type": "Airports",
        "runway_length": "4921",
        "elev": "7",
        "icao": "NTGA",
        "direct_flights": "2",
        "carriers": "1"
      },{
        "code": "AAA",
        "lat": "-17.3595",
        "lon": "-145.494",
        "name": "Anaa Airport",
        "city": "Anaa",
        "state": "Tuamotu-Gambier",
        "country": "French Polynesia",
        "woeid": "12512819",
        "tz": "Pacific\/Midway",
        "type": "Airports",
        "runway_length": "4921",
        "elev": "7",
        "icao": "NTGA",
        "direct_flights": "2",
        "carriers": "1"
      },{
        "code": "AAA",
        "lat": "-17.3595",
        "lon": "-145.494",
        "name": "Anaa Airport",
        "city": "Anaa",
        "state": "Tuamotu-Gambier",
        "country": "French Polynesia",
        "woeid": "12512819",
        "tz": "Pacific\/Midway",
        "type": "Airports",
        "runway_length": "4921",
        "elev": "7",
        "icao": "NTGA",
        "direct_flights": "2",
        "carriers": "1"
      },{
        "code": "AAA",
        "lat": "-17.3595",
        "lon": "-145.494",
        "name": "Anaa Airport",
        "city": "Anaa",
        "state": "Tuamotu-Gambier",
        "country": "French Polynesia",
        "woeid": "12512819",
        "tz": "Pacific\/Midway",
        "type": "Airports",
        "runway_length": "4921",
        "elev": "7",
        "icao": "NTGA",
        "direct_flights": "2",
        "carriers": "1"
      },{
        "code": "AAA",
        "lat": "-17.3595",
        "lon": "-145.494",
        "name": "Anaa Airport",
        "city": "Anaa",
        "state": "Tuamotu-Gambier",
        "country": "French Polynesia",
        "woeid": "12512819",
        "tz": "Pacific\/Midway",
        "type": "Airports",
        "runway_length": "4921",
        "elev": "7",
        "icao": "NTGA",
        "direct_flights": "2",
        "carriers": "1"
      },{
        "code": "AAA",
        "lat": "-17.3595",
        "lon": "-145.494",
        "name": "Anaa Airport",
        "city": "Anaa",
        "state": "Tuamotu-Gambier",
        "country": "French Polynesia",
        "woeid": "12512819",
        "tz": "Pacific\/Midway",
        "type": "Airports",
        "runway_length": "4921",
        "elev": "7",
        "icao": "NTGA",
        "direct_flights": "2",
        "carriers": "1"
      },{
        "code": "AAA",
        "lat": "-17.3595",
        "lon": "-145.494",
        "name": "Anaa Airport",
        "city": "Anaa",
        "state": "Tuamotu-Gambier",
        "country": "French Polynesia",
        "woeid": "12512819",
        "tz": "Pacific\/Midway",
        "type": "Airports",
        "runway_length": "4921",
        "elev": "7",
        "icao": "NTGA",
        "direct_flights": "2",
        "carriers": "1"
      },{
        "code": "AAA",
        "lat": "-17.3595",
        "lon": "-145.494",
        "name": "Anaa Airport",
        "city": "Anaa",
        "state": "Tuamotu-Gambier",
        "country": "French Polynesia",
        "woeid": "12512819",
        "tz": "Pacific\/Midway",
        "type": "Airports",
        "runway_length": "4921",
        "elev": "7",
        "icao": "NTGA",
        "direct_flights": "2",
        "carriers": "1"
      },{
        "code": "AAA",
        "lat": "-17.3595",
        "lon": "-145.494",
        "name": "Anaa Airport",
        "city": "Anaa",
        "state": "Tuamotu-Gambier",
        "country": "French Polynesia",
        "woeid": "12512819",
        "tz": "Pacific\/Midway",
        "type": "Airports",
        "runway_length": "4921",
        "elev": "7",
        "icao": "NTGA",
        "direct_flights": "2",
        "carriers": "1"
      },{
        "code": "AAA",
        "lat": "-17.3595",
        "lon": "-145.494",
        "name": "Anaa Airport",
        "city": "Anaa",
        "state": "Tuamotu-Gambier",
        "country": "French Polynesia",
        "woeid": "12512819",
        "tz": "Pacific\/Midway",
        "type": "Airports",
        "runway_length": "4921",
        "elev": "7",
        "icao": "NTGA",
        "direct_flights": "2",
        "carriers": "1"
      },{
        "code": "AAA",
        "lat": "-17.3595",
        "lon": "-145.494",
        "name": "Anaa Airport",
        "city": "Anaa",
        "state": "Tuamotu-Gambier",
        "country": "French Polynesia",
        "woeid": "12512819",
        "tz": "Pacific\/Midway",
        "type": "Airports",
        "runway_length": "4921",
        "elev": "7",
        "icao": "NTGA",
        "direct_flights": "2",
        "carriers": "1"
      },{
        "code": "AAA",
        "lat": "-17.3595",
        "lon": "-145.494",
        "name": "Anaa Airport",
        "city": "Anaa",
        "state": "Tuamotu-Gambier",
        "country": "French Polynesia",
        "woeid": "12512819",
        "tz": "Pacific\/Midway",
        "type": "Airports",
        "runway_length": "4921",
        "elev": "7",
        "icao": "NTGA",
        "direct_flights": "2",
        "carriers": "1"
      },{
        "code": "AAA",
        "lat": "-17.3595",
        "lon": "-145.494",
        "name": "Anaa Airport",
        "city": "Anaa",
        "state": "Tuamotu-Gambier",
        "country": "French Polynesia",
        "woeid": "12512819",
        "tz": "Pacific\/Midway",
        "type": "Airports",
        "runway_length": "4921",
        "elev": "7",
        "icao": "NTGA",
        "direct_flights": "2",
        "carriers": "1"
      },{
        "code": "AAA",
        "lat": "-17.3595",
        "lon": "-145.494",
        "name": "Anaa Airport",
        "city": "Anaa",
        "state": "Tuamotu-Gambier",
        "country": "French Polynesia",
        "woeid": "12512819",
        "tz": "Pacific\/Midway",
        "type": "Airports",
        "runway_length": "4921",
        "elev": "7",
        "icao": "NTGA",
        "direct_flights": "2",
        "carriers": "1"
      },{
        "code": "AAA",
        "lat": "-17.3595",
        "lon": "-145.494",
        "name": "Anaa Airport",
        "city": "Anaa",
        "state": "Tuamotu-Gambier",
        "country": "French Polynesia",
        "woeid": "12512819",
        "tz": "Pacific\/Midway",
        "type": "Airports",
        "runway_length": "4921",
        "elev": "7",
        "icao": "NTGA",
        "direct_flights": "2",
        "carriers": "1"
      },{
        "code": "AAA",
        "lat": "-17.3595",
        "lon": "-145.494",
        "name": "Anaa Airport",
        "city": "Anaa",
        "state": "Tuamotu-Gambier",
        "country": "French Polynesia",
        "woeid": "12512819",
        "tz": "Pacific\/Midway",
        "type": "Airports",
        "runway_length": "4921",
        "elev": "7",
        "icao": "NTGA",
        "direct_flights": "2",
        "carriers": "1"
      },{
        "code": "AAA",
        "lat": "-17.3595",
        "lon": "-145.494",
        "name": "Anaa Airport",
        "city": "Anaa",
        "state": "Tuamotu-Gambier",
        "country": "French Polynesia",
        "woeid": "12512819",
        "tz": "Pacific\/Midway",
        "type": "Airports",
        "runway_length": "4921",
        "elev": "7",
        "icao": "NTGA",
        "direct_flights": "2",
        "carriers": "1"
      },{
        "code": "AAA",
        "lat": "-17.3595",
        "lon": "-145.494",
        "name": "Anaa Airport",
        "city": "Anaa",
        "state": "Tuamotu-Gambier",
        "country": "French Polynesia",
        "woeid": "12512819",
        "tz": "Pacific\/Midway",
        "type": "Airports",
        "runway_length": "4921",
        "elev": "7",
        "icao": "NTGA",
        "direct_flights": "2",
        "carriers": "1"
      },
      {
        "code": "AAA",
        "lat": "-17.3595",
        "lon": "-145.494",
        "name": "Anaa Airport",
        "city": "Anaa",
        "state": "Tuamotu-Gambier",
        "country": "French Polynesia",
        "woeid": "12512819",
        "tz": "Pacific\/Midway",
        "type": "Airports",
        "runway_length": "4921",
        "elev": "7",
        "icao": "NTGA",
        "direct_flights": "2",
        "carriers": "1"
      },
      {
        "code": "AAA",
        "lat": "-17.3595",
        "lon": "-145.494",
        "name": "Anaa Airport",
        "city": "Anaa",
        "state": "Tuamotu-Gambier",
        "country": "French Polynesia",
        "woeid": "12512819",
        "tz": "Pacific\/Midway",
        "type": "Airports",
        "runway_length": "4921",
        "elev": "7",
        "icao": "NTGA",
        "direct_flights": "2",
        "carriers": "1"
      },   {
        "code": "AAA",
        "lat": "-17.3595",
        "lon": "-145.494",
        "name": "Anaa Airport",
        "city": "Anaa",
        "state": "Tuamotu-Gambier",
        "country": "French Polynesia",
        "woeid": "12512819",
        "tz": "Pacific\/Midway",
        "type": "Airports",
        "runway_length": "4921",
        "elev": "7",
        "icao": "NTGA",
        "direct_flights": "2",
        "carriers": "1"
      },   {
        "code": "AAA",
        "lat": "-17.3595",
        "lon": "-145.494",
        "name": "Anaa Airport",
        "city": "Anaa",
        "state": "Tuamotu-Gambier",
        "country": "French Polynesia",
        "woeid": "12512819",
        "tz": "Pacific\/Midway",
        "type": "Airports",
        "runway_length": "4921",
        "elev": "7",
        "icao": "NTGA",
        "direct_flights": "2",
        "carriers": "1"
      },   {
        "code": "AAA",
        "lat": "-17.3595",
        "lon": "-145.494",
        "name": "Anaa Airport",
        "city": "Anaa",
        "state": "Tuamotu-Gambier",
        "country": "French Polynesia",
        "woeid": "12512819",
        "tz": "Pacific\/Midway",
        "type": "Airports",
        "runway_length": "4921",
        "elev": "7",
        "icao": "NTGA",
        "direct_flights": "2",
        "carriers": "1"
      },   {
        "code": "AAA",
        "lat": "-17.3595",
        "lon": "-145.494",
        "name": "Anaa Airport",
        "city": "Anaa",
        "state": "Tuamotu-Gambier",
        "country": "French Polynesia",
        "woeid": "12512819",
        "tz": "Pacific\/Midway",
        "type": "Airports",
        "runway_length": "4921",
        "elev": "7",
        "icao": "NTGA",
        "direct_flights": "2",
        "carriers": "1"
      },   {
        "code": "AAA",
        "lat": "-17.3595",
        "lon": "-145.494",
        "name": "Anaa Airport",
        "city": "Anaa",
        "state": "Tuamotu-Gambier",
        "country": "French Polynesia",
        "woeid": "12512819",
        "tz": "Pacific\/Midway",
        "type": "Airports",
        "runway_length": "4921",
        "elev": "7",
        "icao": "NTGA",
        "direct_flights": "2",
        "carriers": "1"
      },   {
        "code": "AAA",
        "lat": "-17.3595",
        "lon": "-145.494",
        "name": "Anaa Airport",
        "city": "Anaa",
        "state": "Tuamotu-Gambier",
        "country": "French Polynesia",
        "woeid": "12512819",
        "tz": "Pacific\/Midway",
        "type": "Airports",
        "runway_length": "4921",
        "elev": "7",
        "icao": "NTGA",
        "direct_flights": "2",
        "carriers": "1"
      },   {
        "code": "AAA",
        "lat": "-17.3595",
        "lon": "-145.494",
        "name": "Anaa Airport",
        "city": "Anaa",
        "state": "Tuamotu-Gambier",
        "country": "French Polynesia",
        "woeid": "12512819",
        "tz": "Pacific\/Midway",
        "type": "Airports",
        "runway_length": "4921",
        "elev": "7",
        "icao": "NTGA",
        "direct_flights": "2",
        "carriers": "1"
      },   {
        "code": "AAA",
        "lat": "-17.3595",
        "lon": "-145.494",
        "name": "Anaa Airport",
        "city": "Anaa",
        "state": "Tuamotu-Gambier",
        "country": "French Polynesia",
        "woeid": "12512819",
        "tz": "Pacific\/Midway",
        "type": "Airports",
        "runway_length": "4921",
        "elev": "7",
        "icao": "NTGA",
        "direct_flights": "2",
        "carriers": "1"
      },   {
        "code": "AAA",
        "lat": "-17.3595",
        "lon": "-145.494",
        "name": "Anaa Airport",
        "city": "Anaa",
        "state": "Tuamotu-Gambier",
        "country": "French Polynesia",
        "woeid": "12512819",
        "tz": "Pacific\/Midway",
        "type": "Airports",
        "runway_length": "4921",
        "elev": "7",
        "icao": "NTGA",
        "direct_flights": "2",
        "carriers": "1"
      },   {
        "code": "AAA",
        "lat": "-17.3595",
        "lon": "-145.494",
        "name": "Anaa Airport",
        "city": "Anaa",
        "state": "Tuamotu-Gambier",
        "country": "French Polynesia",
        "woeid": "12512819",
        "tz": "Pacific\/Midway",
        "type": "Airports",
        "runway_length": "4921",
        "elev": "7",
        "icao": "NTGA",
        "direct_flights": "2",
        "carriers": "1"
      },   {
        "code": "AAA",
        "lat": "-17.3595",
        "lon": "-145.494",
        "name": "Anaa Airport",
        "city": "Anaa",
        "state": "Tuamotu-Gambier",
        "country": "French Polynesia",
        "woeid": "12512819",
        "tz": "Pacific\/Midway",
        "type": "Airports",
        "runway_length": "4921",
        "elev": "7",
        "icao": "NTGA",
        "direct_flights": "2",
        "carriers": "1"
      },   {
        "code": "AAA",
        "lat": "-17.3595",
        "lon": "-145.494",
        "name": "Anaa Airport",
        "city": "Anaa",
        "state": "Tuamotu-Gambier",
        "country": "French Polynesia",
        "woeid": "12512819",
        "tz": "Pacific\/Midway",
        "type": "Airports",
        "runway_length": "4921",
        "elev": "7",
        "icao": "NTGA",
        "direct_flights": "2",
        "carriers": "1"
      },   {
        "code": "AAA",
        "lat": "-17.3595",
        "lon": "-145.494",
        "name": "Anaa Airport",
        "city": "Anaa",
        "state": "Tuamotu-Gambier",
        "country": "French Polynesia",
        "woeid": "12512819",
        "tz": "Pacific\/Midway",
        "type": "Airports",
        "runway_length": "4921",
        "elev": "7",
        "icao": "NTGA",
        "direct_flights": "2",
        "carriers": "1"
      },   {
        "code": "AAA",
        "lat": "-17.3595",
        "lon": "-145.494",
        "name": "Anaa Airport",
        "city": "Anaa",
        "state": "Tuamotu-Gambier",
        "country": "French Polynesia",
        "woeid": "12512819",
        "tz": "Pacific\/Midway",
        "type": "Airports",
        "runway_length": "4921",
        "elev": "7",
        "icao": "NTGA",
        "direct_flights": "2",
        "carriers": "1"
      },   {
        "code": "BBB",
        "lat": "-17.3595",
        "lon": "-145.494",
        "name": "Anaa Airport",
        "city": "Anaa",
        "state": "Tuamotu-Gambier",
        "country": "French Polynesia",
        "woeid": "12512819",
        "tz": "Pacific\/Midway",
        "type": "Airports",
        "runway_length": "4921",
        "elev": "7",
        "icao": "NTGA",
        "direct_flights": "2",
        "carriers": "1"
      }
]